latitude,longitude,site_code
30.30477303,-92.01240069,LAF
30.74281484,-95.47688089,HUN
30.56930222,-96.36632391,COL
30.09234333,-97.17244217,BAS
30.02843684,-99.14288812,KER
30.2848659,-97.78067532,BFL
30.27346727,-100.5614635,SON